{
 "type": "FeatureCollection",
 "features": [
  {
   "type": "Feature",
   "properties": {
    "port_id": "DEENDAYAL",
    "name": "Deendayal (Kandla)",
    "region": "West"
   },
   "geometry": {
    "type": "Point",
    "coordinates": [
     70.216,
     23.009
    ]
   }
  },
  {
   "type": "Feature",
   "properties": {
    "port_id": "MUNDRA",
    "name": "Mundra (APSEZ)",
    "region": "West"
   },
   "geometry": {
    "type": "Point",
    "coordinates": [
     69.622,
     22.763
    ]
   }
  },
  {
   "type": "Feature",
   "properties": {
    "port_id": "JNPT",
    "name": "Jawaharlal Nehru (Nhava Sheva)",
    "region": "West"
   },
   "geometry": {
    "type": "Point",
    "coordinates": [
     72.94,
     18.917
    ]
   }
  },
  {
   "type": "Feature",
   "properties": {
    "port_id": "MUMBAI",
    "name": "Mumbai Port",
    "region": "West"
   },
   "geometry": {
    "type": "Point",
    "coordinates": [
     72.844,
     18.949
    ]
   }
  },
  {
   "type": "Feature",
   "properties": {
    "port_id": "MORMUGAO",
    "name": "Mormugao (Goa)",
    "region": "West"
   },
   "geometry": {
    "type": "Point",
    "coordinates": [
     73.802,
     15.407
    ]
   }
  },
  {
   "type": "Feature",
   "properties": {
    "port_id": "NEW_MANGALORE",
    "name": "New Mangalore",
    "region": "West"
   },
   "geometry": {
    "type": "Point",
    "coordinates": [
     74.819,
     12.938
    ]
   }
  },
  {
   "type": "Feature",
   "properties": {
    "port_id": "COCHIN",
    "name": "Cochin (Vallarpadam)",
    "region": "South"
   },
   "geometry": {
    "type": "Point",
    "coordinates": [
     76.259,
     9.969
    ]
   }
  },
  {
   "type": "Feature",
   "properties": {
    "port_id": "TUTICORIN",
    "name": "V.O. Chidambaranar (Tuticorin)",
    "region": "South"
   },
   "geometry": {
    "type": "Point",
    "coordinates": [
     78.189,
     8.766
    ]
   }
  },
  {
   "type": "Feature",
   "properties": {
    "port_id": "CHENNAI",
    "name": "Chennai",
    "region": "East"
   },
   "geometry": {
    "type": "Point",
    "coordinates": [
     80.294,
     13.1
    ]
   }
  },
  {
   "type": "Feature",
   "properties": {
    "port_id": "KAMARAJAR",
    "name": "Kamarajar (Ennore)",
    "region": "East"
   },
   "geometry": {
    "type": "Point",
    "coordinates": [
     80.339,
     13.279
    ]
   }
  },
  {
   "type": "Feature",
   "properties": {
    "port_id": "VIZAG",
    "name": "Visakhapatnam",
    "region": "East"
   },
   "geometry": {
    "type": "Point",
    "coordinates": [
     83.231,
     17.655
    ]
   }
  },
  {
   "type": "Feature",
   "properties": {
    "port_id": "PARADIP",
    "name": "Paradip",
    "region": "East"
   },
   "geometry": {
    "type": "Point",
    "coordinates": [
     86.649,
     20.28
    ]
   }
  },
  {
   "type": "Feature",
   "properties": {
    "port_id": "KOLKATA",
    "name": "Kolkata / Haldia",
    "region": "East"
   },
   "geometry": {
    "type": "Point",
    "coordinates": [
     88.3,
     22.536
    ]
   }
  }
 ]
}